{
  "find_places_nearby_response": {
    "result": [
      {
        "address": "Am Olympiapark 1, 80809 München, Germany",
        "distance_m": 220.1,
        "latitude": 48.1771981,
        "longitude": 11.5562963,
        "name": "BMW Welt"
      },
      {
        "address": "Am Olympiapark 2, 80809 München, Germany",
        "distance_m": 346.9,
        "latitude": 48.1768304,
        "longitude": 11.5590966,
        "name": "BMW Museum"
      },
      {
        "address": "Connollystraße 3, 80809 München, Germany",
        "distance_m": 355.5,
        "latitude": 48.179257199999995,
        "longitude": 11.5512067,
        "name": "Tourist Infomation & Coffee Olympic Village"
      },
      {
        "address": "Spiridon-Louis-Ring 21, 80809 München, Germany",
        "distance_m": 511.4,
        "latitude": 48.1754268,
        "longitude": 11.5519879,
        "name": "Olympiapark München"
      },
      {
        "address": "Info-Pavillon am Olympia-Actionsportzentrum, Spiridon-Louis-Ring 3, 80809 München, Germany",
        "distance_m": 531.4,
        "latitude": 48.1745674,
        "longitude": 11.557936999999999,
        "name": "Besucherservice Olympiapark"
      },
      {
        "address": "Spiridon-Louis-Ring 7, 80809 München, Germany",
        "distance_m": 553.7,
        "latitude": 48.1744184,
        "longitude": 11.5537567,
        "name": "Rockmuseum Munich"
      },
      {
        "address": "Olympiapark München, Spiridon-Louis-Ring 7, 80809 München, Germany",
        "distance_m": 560.3,
        "latitude": 48.174357799999996,
        "longitude": 11.5537484,
        "name": "Olympiaturm"
      },
      {
        "address": "Milbertshofen-Am Hart, 80809 Munich, Germany",
        "distance_m": 588.1,
        "latitude": 48.1739156,
        "longitude": 11.5550634,
        "name": "Olympiapark München Parkeisenbahn"
      },
      {
        "address": "Spiridon-Louis-Ring 7, 80809 München, Germany",
        "distance_m": 596.8,
        "latitude": 48.1738972,
        "longitude": 11.554480499999999,
        "name": "Walk of Fame Olympic Park"
      },
      {
        "address": "Connollystraße 28, 80809 München, Germany",
        "distance_m": 611.3,
        "latitude": 48.1808973,
        "longitude": 11.548172500000002,
        "name": "Nadisee"
      },
      {
        "address": "Coubertinpl. 1, 80809 München, Germany",
        "distance_m": 672.3,
        "latitude": 48.1733694,
        "longitude": 11.5534311,
        "name": "Dalai Lama Friedensbotschaft"
      },
      {
        "address": "Olympiapark München, Spiridon-Louis-Ring 25, 80809 München, Germany",
        "distance_m": 966,
        "latitude": 48.173161199999996,
        "longitude": 11.5465866,
        "name": "Munich Olympic Stadium"
      }
    ]
  }
}
